{
"type": "FeatureCollection",
"name": "subway_stops",
"crs": { "type": "name", "properties": { "name": "urn:ogc:def:crs:OGC:1.3:CRS84" } },
"features": [
{ "type": "Feature", "properties": { "id": "7721", "stop_I": 8472, "name": "BATTISTINI" }, "geometry": { "type": "Point", "coordinates": [ 12.414848, 41.90622 ] } },
{ "type": "Feature", "properties": { "id": "7722", "stop_I": 8473, "name": "BARBERINI" }, "geometry": { "type": "Point", "coordinates": [ 12.488578, 41.903694 ] } },
{ "type": "Feature", "properties": { "id": "7723", "stop_I": 8474, "name": "REPUBBLICA" }, "geometry": { "type": "Point", "coordinates": [ 12.496241, 41.902553 ] } },
{ "type": "Feature", "properties": { "id": "7724", "stop_I": 8475, "name": "TERMINI" }, "geometry": { "type": "Point", "coordinates": [ 12.499871, 41.900965 ] } },
{ "type": "Feature", "properties": { "id": "7725", "stop_I": 8476, "name": "VITTORIO EMANUELE" }, "geometry": { "type": "Point", "coordinates": [ 12.50426, 41.894504 ] } },
{ "type": "Feature", "properties": { "id": "7726", "stop_I": 8477, "name": "MANZONI" }, "geometry": { "type": "Point", "coordinates": [ 12.506333, 41.890543 ] } },
{ "type": "Feature", "properties": { "id": "7727", "stop_I": 8478, "name": "S. GIOVANNI" }, "geometry": { "type": "Point", "coordinates": [ 12.50944, 41.885539 ] } },
{ "type": "Feature", "properties": { "id": "7728", "stop_I": 8479, "name": "RE DI ROMA" }, "geometry": { "type": "Point", "coordinates": [ 12.513994, 41.881726 ] } },
{ "type": "Feature", "properties": { "id": "7729", "stop_I": 8480, "name": "PONTE LUNGO" }, "geometry": { "type": "Point", "coordinates": [ 12.518899, 41.877664 ] } },
{ "type": "Feature", "properties": { "id": "7730", "stop_I": 8481, "name": "FURIO CAMILLO" }, "geometry": { "type": "Point", "coordinates": [ 12.522853, 41.874615 ] } },
{ "type": "Feature", "properties": { "id": "7731", "stop_I": 8482, "name": "COLLI ALBANI" }, "geometry": { "type": "Point", "coordinates": [ 12.529369, 41.869648 ] } },
{ "type": "Feature", "properties": { "id": "7732", "stop_I": 8483, "name": "CORNELIA" }, "geometry": { "type": "Point", "coordinates": [ 12.42629, 41.900602 ] } },
{ "type": "Feature", "properties": { "id": "7733", "stop_I": 8484, "name": "ARCO DI TRAVERTINO" }, "geometry": { "type": "Point", "coordinates": [ 12.535897, 41.865937 ] } },
{ "type": "Feature", "properties": { "id": "7734", "stop_I": 8485, "name": "PORTA FURBA - QUADRARO" }, "geometry": { "type": "Point", "coordinates": [ 12.548119, 41.86374 ] } },
{ "type": "Feature", "properties": { "id": "7735", "stop_I": 8486, "name": "NUMIDIO QUADRATO" }, "geometry": { "type": "Point", "coordinates": [ 12.552541, 41.861942 ] } },
{ "type": "Feature", "properties": { "id": "7736", "stop_I": 8487, "name": "LUCIO SESTIO" }, "geometry": { "type": "Point", "coordinates": [ 12.557053, 41.859617 ] } },
{ "type": "Feature", "properties": { "id": "7737", "stop_I": 8488, "name": "GIULIO AGRICOLA" }, "geometry": { "type": "Point", "coordinates": [ 12.562563, 41.856514 ] } },
{ "type": "Feature", "properties": { "id": "7738", "stop_I": 8489, "name": "SUBAUGUSTA" }, "geometry": { "type": "Point", "coordinates": [ 12.567956, 41.853571 ] } },
{ "type": "Feature", "properties": { "id": "7739", "stop_I": 8490, "name": "CINECITTA'" }, "geometry": { "type": "Point", "coordinates": [ 12.573801, 41.849423 ] } },
{ "type": "Feature", "properties": { "id": "7740", "stop_I": 8491, "name": "ANAGNINA" }, "geometry": { "type": "Point", "coordinates": [ 12.585758, 41.84284 ] } },
{ "type": "Feature", "properties": { "id": "7741", "stop_I": 8492, "name": "BALDO DEGLI UBALDI" }, "geometry": { "type": "Point", "coordinates": [ 12.434508, 41.899107 ] } },
{ "type": "Feature", "properties": { "id": "7742", "stop_I": 8493, "name": "VALLE AURELIA" }, "geometry": { "type": "Point", "coordinates": [ 12.441318, 41.902711 ] } },
{ "type": "Feature", "properties": { "id": "7743", "stop_I": 8494, "name": "CIPRO" }, "geometry": { "type": "Point", "coordinates": [ 12.447394, 41.907467 ] } },
{ "type": "Feature", "properties": { "id": "7744", "stop_I": 8495, "name": "OTTAVIANO" }, "geometry": { "type": "Point", "coordinates": [ 12.458104, 41.909352 ] } },
{ "type": "Feature", "properties": { "id": "7745", "stop_I": 8496, "name": "LEPANTO" }, "geometry": { "type": "Point", "coordinates": [ 12.466186, 41.911325 ] } },
{ "type": "Feature", "properties": { "id": "7746", "stop_I": 8497, "name": "FLAMINIO" }, "geometry": { "type": "Point", "coordinates": [ 12.476364, 41.912611 ] } },
{ "type": "Feature", "properties": { "id": "7747", "stop_I": 8498, "name": "SPAGNA" }, "geometry": { "type": "Point", "coordinates": [ 12.482235, 41.907777 ] } },
{ "type": "Feature", "properties": { "id": "7748", "stop_I": 8499, "name": "ANAGNINA" }, "geometry": { "type": "Point", "coordinates": [ 12.585897, 41.842997 ] } },
{ "type": "Feature", "properties": { "id": "7749", "stop_I": 8500, "name": "FURIO CAMILLO" }, "geometry": { "type": "Point", "coordinates": [ 12.523074, 41.874778 ] } },
{ "type": "Feature", "properties": { "id": "7750", "stop_I": 8501, "name": "PONTE LUNGO" }, "geometry": { "type": "Point", "coordinates": [ 12.519109, 41.877827 ] } },
{ "type": "Feature", "properties": { "id": "7751", "stop_I": 8502, "name": "RE DI ROMA" }, "geometry": { "type": "Point", "coordinates": [ 12.514229, 41.881864 ] } },
{ "type": "Feature", "properties": { "id": "7752", "stop_I": 8503, "name": "S. GIOVANNI" }, "geometry": { "type": "Point", "coordinates": [ 12.509652, 41.885662 ] } },
{ "type": "Feature", "properties": { "id": "7753", "stop_I": 8504, "name": "MANZONI" }, "geometry": { "type": "Point", "coordinates": [ 12.506673, 41.890608 ] } },
{ "type": "Feature", "properties": { "id": "7754", "stop_I": 8505, "name": "VITTORIO EMANUELE" }, "geometry": { "type": "Point", "coordinates": [ 12.504571, 41.894561 ] } },
{ "type": "Feature", "properties": { "id": "7755", "stop_I": 8506, "name": "TERMINI" }, "geometry": { "type": "Point", "coordinates": [ 12.500031, 41.901076 ] } },
{ "type": "Feature", "properties": { "id": "7756", "stop_I": 8507, "name": "REPUBBLICA" }, "geometry": { "type": "Point", "coordinates": [ 12.496328, 41.902797 ] } },
{ "type": "Feature", "properties": { "id": "7757", "stop_I": 8508, "name": "BARBERINI" }, "geometry": { "type": "Point", "coordinates": [ 12.488756, 41.903802 ] } },
{ "type": "Feature", "properties": { "id": "7758", "stop_I": 8509, "name": "SPAGNA" }, "geometry": { "type": "Point", "coordinates": [ 12.482475, 41.907926 ] } },
{ "type": "Feature", "properties": { "id": "7759", "stop_I": 8510, "name": "CINECITTA'" }, "geometry": { "type": "Point", "coordinates": [ 12.57418, 41.849686 ] } },
{ "type": "Feature", "properties": { "id": "7760", "stop_I": 8511, "name": "FLAMINIO" }, "geometry": { "type": "Point", "coordinates": [ 12.476381, 41.912799 ] } },
{ "type": "Feature", "properties": { "id": "7761", "stop_I": 8512, "name": "LEPANTO" }, "geometry": { "type": "Point", "coordinates": [ 12.466101, 41.911478 ] } },
{ "type": "Feature", "properties": { "id": "7762", "stop_I": 8513, "name": "OTTAVIANO" }, "geometry": { "type": "Point", "coordinates": [ 12.458088, 41.909521 ] } },
{ "type": "Feature", "properties": { "id": "7763", "stop_I": 8514, "name": "CIPRO" }, "geometry": { "type": "Point", "coordinates": [ 12.447356, 41.907586 ] } },
{ "type": "Feature", "properties": { "id": "7764", "stop_I": 8515, "name": "VALLE AURELIA" }, "geometry": { "type": "Point", "coordinates": [ 12.441192, 41.90283 ] } },
{ "type": "Feature", "properties": { "id": "7765", "stop_I": 8516, "name": "BALDO DEGLI UBALDI" }, "geometry": { "type": "Point", "coordinates": [ 12.434465, 41.899267 ] } },
{ "type": "Feature", "properties": { "id": "7766", "stop_I": 8517, "name": "CORNELIA" }, "geometry": { "type": "Point", "coordinates": [ 12.426452, 41.90066 ] } },
{ "type": "Feature", "properties": { "id": "7767", "stop_I": 8518, "name": "BATTISTINI" }, "geometry": { "type": "Point", "coordinates": [ 12.414956, 41.906306 ] } },
{ "type": "Feature", "properties": { "id": "7768", "stop_I": 8519, "name": "SUBAUGUSTA" }, "geometry": { "type": "Point", "coordinates": [ 12.568163, 41.853716 ] } },
{ "type": "Feature", "properties": { "id": "7769", "stop_I": 8520, "name": "GIULIO AGRICOLA" }, "geometry": { "type": "Point", "coordinates": [ 12.562781, 41.856738 ] } },
{ "type": "Feature", "properties": { "id": "7770", "stop_I": 8521, "name": "LUCIO SESTIO" }, "geometry": { "type": "Point", "coordinates": [ 12.557253, 41.859816 ] } },
{ "type": "Feature", "properties": { "id": "7771", "stop_I": 8522, "name": "NUMIDIO QUADRATO" }, "geometry": { "type": "Point", "coordinates": [ 12.55273, 41.862151 ] } },
{ "type": "Feature", "properties": { "id": "7772", "stop_I": 8523, "name": "PORTA FURBA - QUADRARO" }, "geometry": { "type": "Point", "coordinates": [ 12.548173, 41.863923 ] } },
{ "type": "Feature", "properties": { "id": "7773", "stop_I": 8524, "name": "ARCO DI TRAVERTINO" }, "geometry": { "type": "Point", "coordinates": [ 12.536031, 41.866088 ] } },
{ "type": "Feature", "properties": { "id": "7774", "stop_I": 8525, "name": "COLLI ALBANI" }, "geometry": { "type": "Point", "coordinates": [ 12.529521, 41.869831 ] } },
{ "type": "Feature", "properties": { "id": "7775", "stop_I": 8526, "name": "REBIBBIA" }, "geometry": { "type": "Point", "coordinates": [ 12.572617, 41.925726 ] } },
{ "type": "Feature", "properties": { "id": "7776", "stop_I": 8527, "name": "CASTRO PRETORIO" }, "geometry": { "type": "Point", "coordinates": [ 12.505364, 41.906264 ] } },
{ "type": "Feature", "properties": { "id": "7777", "stop_I": 8528, "name": "TERMINI" }, "geometry": { "type": "Point", "coordinates": [ 12.500052, 41.901026 ] } },
{ "type": "Feature", "properties": { "id": "7778", "stop_I": 8529, "name": "CAVOUR" }, "geometry": { "type": "Point", "coordinates": [ 12.493609, 41.895137 ] } },
{ "type": "Feature", "properties": { "id": "7779", "stop_I": 8530, "name": "COLOSSEO" }, "geometry": { "type": "Point", "coordinates": [ 12.491474, 41.89129 ] } },
{ "type": "Feature", "properties": { "id": "7780", "stop_I": 8531, "name": "CIRCO MASSIMO" }, "geometry": { "type": "Point", "coordinates": [ 12.487731, 41.883486 ] } },
{ "type": "Feature", "properties": { "id": "7781", "stop_I": 8532, "name": "PIRAMIDE" }, "geometry": { "type": "Point", "coordinates": [ 12.481967, 41.875651 ] } },
{ "type": "Feature", "properties": { "id": "7782", "stop_I": 8533, "name": "GARBATELLA" }, "geometry": { "type": "Point", "coordinates": [ 12.483034, 41.866523 ] } },
{ "type": "Feature", "properties": { "id": "7783", "stop_I": 8534, "name": "BASILICA SAN PAOLO" }, "geometry": { "type": "Point", "coordinates": [ 12.47811, 41.855981 ] } },
{ "type": "Feature", "properties": { "id": "7784", "stop_I": 8535, "name": "MARCONI" }, "geometry": { "type": "Point", "coordinates": [ 12.475439, 41.848836 ] } },
{ "type": "Feature", "properties": { "id": "7785", "stop_I": 8536, "name": "EUR MAGLIANA" }, "geometry": { "type": "Point", "coordinates": [ 12.463477, 41.839597 ] } },
{ "type": "Feature", "properties": { "id": "7786", "stop_I": 8537, "name": "PONTE MAMMOLO" }, "geometry": { "type": "Point", "coordinates": [ 12.565083, 41.920976 ] } },
{ "type": "Feature", "properties": { "id": "7787", "stop_I": 8538, "name": "EUR PALASPORT" }, "geometry": { "type": "Point", "coordinates": [ 12.46597, 41.830075 ] } },
{ "type": "Feature", "properties": { "id": "7788", "stop_I": 8539, "name": "EUR FERMI" }, "geometry": { "type": "Point", "coordinates": [ 12.470875, 41.82864 ] } },
{ "type": "Feature", "properties": { "id": "7789", "stop_I": 8540, "name": "LAURENTINA" }, "geometry": { "type": "Point", "coordinates": [ 12.480614, 41.827156 ] } },
{ "type": "Feature", "properties": { "id": "7790", "stop_I": 8541, "name": "S.AGNESE/ANNIBALIANO" }, "geometry": { "type": "Point", "coordinates": [ 12.516149, 41.923799 ] } },
{ "type": "Feature", "properties": { "id": "7791", "stop_I": 8542, "name": "LIBIA" }, "geometry": { "type": "Point", "coordinates": [ 12.519144, 41.931722 ] } },
{ "type": "Feature", "properties": { "id": "7792", "stop_I": 8543, "name": "CONCA D'ORO" }, "geometry": { "type": "Point", "coordinates": [ 12.527365, 41.938985 ] } },
{ "type": "Feature", "properties": { "id": "7793", "stop_I": 8544, "name": "JONIO" }, "geometry": { "type": "Point", "coordinates": [ 12.527682, 41.947262 ] } },
{ "type": "Feature", "properties": { "id": "7794", "stop_I": 8545, "name": "S.M. DEL SOCCORSO" }, "geometry": { "type": "Point", "coordinates": [ 12.561243, 41.916183 ] } },
{ "type": "Feature", "properties": { "id": "7795", "stop_I": 8546, "name": "PIETRALATA" }, "geometry": { "type": "Point", "coordinates": [ 12.555642, 41.914133 ] } },
{ "type": "Feature", "properties": { "id": "7796", "stop_I": 8547, "name": "MONTI TIBURTINI" }, "geometry": { "type": "Point", "coordinates": [ 12.547616, 41.916109 ] } },
{ "type": "Feature", "properties": { "id": "7797", "stop_I": 8548, "name": "QUINTILIANI" }, "geometry": { "type": "Point", "coordinates": [ 12.538864, 41.914934 ] } },
{ "type": "Feature", "properties": { "id": "7798", "stop_I": 8549, "name": "TIBURTINA F.S." }, "geometry": { "type": "Point", "coordinates": [ 12.530286, 41.910247 ] } },
{ "type": "Feature", "properties": { "id": "7799", "stop_I": 8550, "name": "BOLOGNA" }, "geometry": { "type": "Point", "coordinates": [ 12.52081, 41.913665 ] } },
{ "type": "Feature", "properties": { "id": "7800", "stop_I": 8551, "name": "POLICLINICO" }, "geometry": { "type": "Point", "coordinates": [ 12.512187, 41.908876 ] } },
{ "type": "Feature", "properties": { "id": "7801", "stop_I": 8552, "name": "LAURENTINA" }, "geometry": { "type": "Point", "coordinates": [ 12.480657, 41.827234 ] } },
{ "type": "Feature", "properties": { "id": "7802", "stop_I": 8553, "name": "COLOSSEO" }, "geometry": { "type": "Point", "coordinates": [ 12.491604, 41.891222 ] } },
{ "type": "Feature", "properties": { "id": "7803", "stop_I": 8554, "name": "CAVOUR" }, "geometry": { "type": "Point", "coordinates": [ 12.494011, 41.894972 ] } },
{ "type": "Feature", "properties": { "id": "7804", "stop_I": 8555, "name": "TERMINI" }, "geometry": { "type": "Point", "coordinates": [ 12.500259, 41.900916 ] } },
{ "type": "Feature", "properties": { "id": "7805", "stop_I": 8556, "name": "CASTRO PRETORIO" }, "geometry": { "type": "Point", "coordinates": [ 12.50562, 41.90614 ] } },
{ "type": "Feature", "properties": { "id": "7806", "stop_I": 8557, "name": "POLICLINICO" }, "geometry": { "type": "Point", "coordinates": [ 12.512219, 41.908546 ] } },
{ "type": "Feature", "properties": { "id": "7807", "stop_I": 8558, "name": "BOLOGNA" }, "geometry": { "type": "Point", "coordinates": [ 12.520861, 41.91354 ] } },
{ "type": "Feature", "properties": { "id": "7808", "stop_I": 8559, "name": "TIBURTINA F.S." }, "geometry": { "type": "Point", "coordinates": [ 12.530163, 41.909949 ] } },
{ "type": "Feature", "properties": { "id": "7809", "stop_I": 8560, "name": "QUINTILIANI" }, "geometry": { "type": "Point", "coordinates": [ 12.539096, 41.914651 ] } },
{ "type": "Feature", "properties": { "id": "7810", "stop_I": 8561, "name": "MONTI TIBURTINI" }, "geometry": { "type": "Point", "coordinates": [ 12.547617, 41.915828 ] } },
{ "type": "Feature", "properties": { "id": "7811", "stop_I": 8562, "name": "PIETRALATA" }, "geometry": { "type": "Point", "coordinates": [ 12.555648, 41.913972 ] } },
{ "type": "Feature", "properties": { "id": "7812", "stop_I": 8563, "name": "EUR FERMI" }, "geometry": { "type": "Point", "coordinates": [ 12.470958, 41.828775 ] } },
{ "type": "Feature", "properties": { "id": "7813", "stop_I": 8564, "name": "S.M. DEL SOCCORSO" }, "geometry": { "type": "Point", "coordinates": [ 12.561639, 41.915911 ] } },
{ "type": "Feature", "properties": { "id": "7814", "stop_I": 8565, "name": "PONTE MAMMOLO" }, "geometry": { "type": "Point", "coordinates": [ 12.565234, 41.920918 ] } },
{ "type": "Feature", "properties": { "id": "7815", "stop_I": 8566, "name": "REBIBBIA" }, "geometry": { "type": "Point", "coordinates": [ 12.572738, 41.925622 ] } },
{ "type": "Feature", "properties": { "id": "7816", "stop_I": 8567, "name": "S.AGNESE/ANNIBALIANO" }, "geometry": { "type": "Point", "coordinates": [ 12.516383, 41.923787 ] } },
{ "type": "Feature", "properties": { "id": "7817", "stop_I": 8568, "name": "LIBIA" }, "geometry": { "type": "Point", "coordinates": [ 12.519337, 41.931619 ] } },
{ "type": "Feature", "properties": { "id": "7818", "stop_I": 8569, "name": "CONCA D'ORO" }, "geometry": { "type": "Point", "coordinates": [ 12.527501, 41.938916 ] } },
{ "type": "Feature", "properties": { "id": "7819", "stop_I": 8570, "name": "JONIO" }, "geometry": { "type": "Point", "coordinates": [ 12.527944, 41.947267 ] } },
{ "type": "Feature", "properties": { "id": "7820", "stop_I": 8571, "name": "EUR PALASPORT" }, "geometry": { "type": "Point", "coordinates": [ 12.466027, 41.830195 ] } },
{ "type": "Feature", "properties": { "id": "7821", "stop_I": 8572, "name": "EUR MAGLIANA" }, "geometry": { "type": "Point", "coordinates": [ 12.463584, 41.839517 ] } },
{ "type": "Feature", "properties": { "id": "7822", "stop_I": 8573, "name": "MARCONI" }, "geometry": { "type": "Point", "coordinates": [ 12.475642, 41.848803 ] } },
{ "type": "Feature", "properties": { "id": "7823", "stop_I": 8574, "name": "BASILICA SAN PAOLO" }, "geometry": { "type": "Point", "coordinates": [ 12.478559, 41.855978 ] } },
{ "type": "Feature", "properties": { "id": "7824", "stop_I": 8575, "name": "GARBATELLA" }, "geometry": { "type": "Point", "coordinates": [ 12.483265, 41.866461 ] } },
{ "type": "Feature", "properties": { "id": "7825", "stop_I": 8576, "name": "PIRAMIDE" }, "geometry": { "type": "Point", "coordinates": [ 12.482177, 41.875713 ] } },
{ "type": "Feature", "properties": { "id": "7826", "stop_I": 8577, "name": "CIRCO MASSIMO" }, "geometry": { "type": "Point", "coordinates": [ 12.487968, 41.883324 ] } },
{ "type": "Feature", "properties": { "id": "7827", "stop_I": 8578, "name": "PANTANO" }, "geometry": { "type": "Point", "coordinates": [ 12.707633, 41.865449 ] } },
{ "type": "Feature", "properties": { "id": "7828", "stop_I": 8579, "name": "GRANITI" }, "geometry": { "type": "Point", "coordinates": [ 12.697878, 41.865552 ] } },
{ "type": "Feature", "properties": { "id": "7829", "stop_I": 8580, "name": "FINOCCHIO" }, "geometry": { "type": "Point", "coordinates": [ 12.687869, 41.865402 ] } },
{ "type": "Feature", "properties": { "id": "7830", "stop_I": 8581, "name": "BOLOGNETTA" }, "geometry": { "type": "Point", "coordinates": [ 12.681058, 41.86509 ] } },
{ "type": "Feature", "properties": { "id": "7831", "stop_I": 8582, "name": "BORGHESIANA" }, "geometry": { "type": "Point", "coordinates": [ 12.66659, 41.864663 ] } },
{ "type": "Feature", "properties": { "id": "7832", "stop_I": 8583, "name": "FONTANA CANDIDA" }, "geometry": { "type": "Point", "coordinates": [ 12.658099, 41.864788 ] } },
{ "type": "Feature", "properties": { "id": "7833", "stop_I": 8584, "name": "GROTTE CELONI" }, "geometry": { "type": "Point", "coordinates": [ 12.646082, 41.862804 ] } },
{ "type": "Feature", "properties": { "id": "7834", "stop_I": 8585, "name": "TORRE GAIA" }, "geometry": { "type": "Point", "coordinates": [ 12.635612, 41.864008 ] } },
{ "type": "Feature", "properties": { "id": "7835", "stop_I": 8586, "name": "TORRE ANGELA" }, "geometry": { "type": "Point", "coordinates": [ 12.625523, 41.864212 ] } },
{ "type": "Feature", "properties": { "id": "7836", "stop_I": 8587, "name": "TORRENOVA" }, "geometry": { "type": "Point", "coordinates": [ 12.616744, 41.863186 ] } },
{ "type": "Feature", "properties": { "id": "7837", "stop_I": 8588, "name": "GIARDINETTI" }, "geometry": { "type": "Point", "coordinates": [ 12.610223, 41.863955 ] } },
{ "type": "Feature", "properties": { "id": "7838", "stop_I": 8589, "name": "TORRE MAURA" }, "geometry": { "type": "Point", "coordinates": [ 12.596861, 41.866709 ] } },
{ "type": "Feature", "properties": { "id": "7839", "stop_I": 8590, "name": "TORRE SPACCATA" }, "geometry": { "type": "Point", "coordinates": [ 12.586441, 41.869102 ] } },
{ "type": "Feature", "properties": { "id": "7840", "stop_I": 8591, "name": "ALESSANDRINO" }, "geometry": { "type": "Point", "coordinates": [ 12.578947, 41.870846 ] } },
{ "type": "Feature", "properties": { "id": "7841", "stop_I": 8592, "name": "PARCO DI CENTOCELLE" }, "geometry": { "type": "Point", "coordinates": [ 12.56833, 41.874464 ] } },
{ "type": "Feature", "properties": { "id": "7842", "stop_I": 8593, "name": "MIRTI" }, "geometry": { "type": "Point", "coordinates": [ 12.566553, 41.881008 ] } },
{ "type": "Feature", "properties": { "id": "7843", "stop_I": 8594, "name": "GARDENIE" }, "geometry": { "type": "Point", "coordinates": [ 12.56204, 41.885981 ] } },
{ "type": "Feature", "properties": { "id": "7844", "stop_I": 8595, "name": "TEANO" }, "geometry": { "type": "Point", "coordinates": [ 12.551368, 41.88932 ] } },
{ "type": "Feature", "properties": { "id": "7845", "stop_I": 8596, "name": "MALATESTA" }, "geometry": { "type": "Point", "coordinates": [ 12.540199, 41.887224 ] } },
{ "type": "Feature", "properties": { "id": "7846", "stop_I": 8597, "name": "PIGNETO" }, "geometry": { "type": "Point", "coordinates": [ 12.52862, 41.888252 ] } },
{ "type": "Feature", "properties": { "id": "7847", "stop_I": 8598, "name": "LODI" }, "geometry": { "type": "Point", "coordinates": [ 12.518813, 41.886935 ] } },
{ "type": "Feature", "properties": { "id": "7848", "stop_I": 8599, "name": "PANTANO" }, "geometry": { "type": "Point", "coordinates": [ 12.707708, 41.865666 ] } },
{ "type": "Feature", "properties": { "id": "7849", "stop_I": 8600, "name": "GRANITI" }, "geometry": { "type": "Point", "coordinates": [ 12.69772, 41.865723 ] } },
{ "type": "Feature", "properties": { "id": "7850", "stop_I": 8601, "name": "FINOCCHIO" }, "geometry": { "type": "Point", "coordinates": [ 12.687932, 41.865568 ] } },
{ "type": "Feature", "properties": { "id": "7851", "stop_I": 8602, "name": "BOLOGNETTA" }, "geometry": { "type": "Point", "coordinates": [ 12.68086, 41.86526 ] } },
{ "type": "Feature", "properties": { "id": "7852", "stop_I": 8603, "name": "BORGHESIANA" }, "geometry": { "type": "Point", "coordinates": [ 12.666583, 41.864858 ] } },
{ "type": "Feature", "properties": { "id": "7853", "stop_I": 8604, "name": "FONTANA CANDIDA" }, "geometry": { "type": "Point", "coordinates": [ 12.658104, 41.865024 ] } },
{ "type": "Feature", "properties": { "id": "7854", "stop_I": 8605, "name": "GROTTE CELONI" }, "geometry": { "type": "Point", "coordinates": [ 12.646089, 41.86299 ] } },
{ "type": "Feature", "properties": { "id": "7855", "stop_I": 8606, "name": "TORRE GAIA" }, "geometry": { "type": "Point", "coordinates": [ 12.635645, 41.864235 ] } },
{ "type": "Feature", "properties": { "id": "7856", "stop_I": 8607, "name": "TORRE ANGELA" }, "geometry": { "type": "Point", "coordinates": [ 12.6255, 41.864459 ] } },
{ "type": "Feature", "properties": { "id": "7857", "stop_I": 8608, "name": "TORRENOVA" }, "geometry": { "type": "Point", "coordinates": [ 12.616706, 41.863453 ] } },
{ "type": "Feature", "properties": { "id": "7858", "stop_I": 8609, "name": "GIARDINETTI" }, "geometry": { "type": "Point", "coordinates": [ 12.610313, 41.864122 ] } },
{ "type": "Feature", "properties": { "id": "7859", "stop_I": 8610, "name": "TORRE MAURA" }, "geometry": { "type": "Point", "coordinates": [ 12.596841, 41.866884 ] } },
{ "type": "Feature", "properties": { "id": "7860", "stop_I": 8611, "name": "TORRE SPACCATA" }, "geometry": { "type": "Point", "coordinates": [ 12.58653, 41.869289 ] } },
{ "type": "Feature", "properties": { "id": "7861", "stop_I": 8612, "name": "ALESSANDRINO" }, "geometry": { "type": "Point", "coordinates": [ 12.579065, 41.871003 ] } },
{ "type": "Feature", "properties": { "id": "7862", "stop_I": 8613, "name": "PARCO DI CENTOCELLE" }, "geometry": { "type": "Point", "coordinates": [ 12.568499, 41.874453 ] } },
{ "type": "Feature", "properties": { "id": "7863", "stop_I": 8614, "name": "MIRTI" }, "geometry": { "type": "Point", "coordinates": [ 12.56676, 41.881043 ] } },
{ "type": "Feature", "properties": { "id": "7864", "stop_I": 8615, "name": "GARDENIE" }, "geometry": { "type": "Point", "coordinates": [ 12.562108, 41.886115 ] } },
{ "type": "Feature", "properties": { "id": "7865", "stop_I": 8616, "name": "TEANO" }, "geometry": { "type": "Point", "coordinates": [ 12.551361, 41.889483 ] } },
{ "type": "Feature", "properties": { "id": "7866", "stop_I": 8617, "name": "MALATESTA" }, "geometry": { "type": "Point", "coordinates": [ 12.540216, 41.887325 ] } },
{ "type": "Feature", "properties": { "id": "7867", "stop_I": 8618, "name": "PIGNETO" }, "geometry": { "type": "Point", "coordinates": [ 12.528663, 41.888342 ] } },
{ "type": "Feature", "properties": { "id": "7868", "stop_I": 8619, "name": "LODI" }, "geometry": { "type": "Point", "coordinates": [ 12.518793, 41.887055 ] } }
]
}
